person,name,lat,lng,type,time,modernName,ancientName
刘恒,晋阳（存疑）,37.7137529,112.470823,birth,公元前203年,山西省太原市晋源区,晋阳
刘恒,代国（中都）,37.1938436,112.1833006,normal,公元前196年—公元前180年,山西省平遥县西南,晋阳、中都
刘恒,长安（未央宫）,34.3124917,108.9825594,normal,公元前180年,陕西省西安市西北,长安
刘恒,长安（代邸）,34.4468505,109.0014638,normal,公元前180年,陕西省西安市境内,长安
刘恒,长安（未央宫）,38.0356538,114.5317834,normal,公元前180年—公元前157年,长安（未央宫）,长安未央宫
刘恒,长安（未央宫）,34.3124917,108.9825594,death,公元前157年,陕西省西安市西北,长安未央宫
