{
  "type": "FeatureCollection",
  "features": [
    {
      "type": "Feature",
      "geometry": {
        "type": "Point",
        "coordinates": [
          112.470823,
          37.7137529
        ]
      },
      "properties": {
        "person": "刘恒",
        "name": "晋阳（存疑）",
        "type": "birth",
        "time": "公元前203年",
        "modernName": "山西省太原市晋源区",
        "ancientName": "晋阳"
      }
    },
    {
      "type": "Feature",
      "geometry": {
        "type": "Point",
        "coordinates": [
          112.1833006,
          37.1938436
        ]
      },
      "properties": {
        "person": "刘恒",
        "name": "代国（中都）",
        "type": "normal",
        "time": "公元前196年—公元前180年",
        "modernName": "山西省平遥县西南",
        "ancientName": "晋阳、中都"
      }
    },
    {
      "type": "Feature",
      "geometry": {
        "type": "Point",
        "coordinates": [
          108.9825594,
          34.3124917
        ]
      },
      "properties": {
        "person": "刘恒",
        "name": "长安（未央宫）",
        "type": "normal",
        "time": "公元前180年",
        "modernName": "陕西省西安市西北",
        "ancientName": "长安"
      }
    },
    {
      "type": "Feature",
      "geometry": {
        "type": "Point",
        "coordinates": [
          109.0014638,
          34.4468505
        ]
      },
      "properties": {
        "person": "刘恒",
        "name": "长安（代邸）",
        "type": "normal",
        "time": "公元前180年",
        "modernName": "陕西省西安市境内",
        "ancientName": "长安"
      }
    },
    {
      "type": "Feature",
      "geometry": {
        "type": "Point",
        "coordinates": [
          114.5317834,
          38.0356538
        ]
      },
      "properties": {
        "person": "刘恒",
        "name": "长安（未央宫）",
        "type": "normal",
        "time": "公元前180年—公元前157年",
        "modernName": "长安（未央宫）",
        "ancientName": "长安未央宫"
      }
    },
    {
      "type": "Feature",
      "geometry": {
        "type": "Point",
        "coordinates": [
          108.9825594,
          34.3124917
        ]
      },
      "properties": {
        "person": "刘恒",
        "name": "长安（未央宫）",
        "type": "death",
        "time": "公元前157年",
        "modernName": "陕西省西安市西北",
        "ancientName": "长安未央宫"
      }
    },
    {
      "type": "Feature",
      "geometry": {
        "type": "LineString",
        "coordinates": [
          [
            112.470823,
            37.7137529
          ],
          [
            112.1833006,
            37.1938436
          ],
          [
            108.9825594,
            34.3124917
          ],
          [
            109.0014638,
            34.4468505
          ],
          [
            114.5317834,
            38.0356538
          ],
          [
            108.9825594,
            34.3124917
          ]
        ]
      },
      "properties": {
        "person": "刘恒",
        "name": "轨迹"
      }
    }
  ]
}